City,Lat,Lng,Max Temp,Humidity,Cloudiness,Wind Speed,Country,Date
Ocala,29.1872,-82.1401,62.6,88,40,8.05,US,1616140489
Port Alfred,-33.5906,26.891,71.26,77,99,19.17,ZA,1616140295
Havre-St-Pierre,50.2334,-63.5986,10.4,61,1,18.41,CA,1616140514
Deputatsky,69.3,139.9,-18.38,96,100,4.38,RU,1616140465
Labuhan,-6.8844,112.2051,85.23,75,8,11.56,ID,1616140697
Cape Town,-33.9258,18.4232,66.2,59,20,20.71,ZA,1616140081
Bethel,41.3712,-73.414,36.0,65,100,4.0,US,1616140416
Cidreira,-30.1811,-50.2056,69.4,79,47,6.87,BR,1616140363
Punta Arenas,-53.15,-70.9167,48.2,81,0,8.05,CL,1616140340
Mataura,-46.1927,168.8643,55.0,84,34,5.01,NZ,1616140324
Mehamn,71.0357,27.8492,23.0,86,100,25.32,NO,1616140586
Cabo San Lucas,22.8909,-109.9124,60.01,58,0,4.7,MX,1616140202
Busselton,-33.65,115.3333,91.99,24,98,1.99,AU,1616140311
Cap Malheureux,-19.9842,57.6142,84.0,66,0,8.99,MU,1616140698
Adrar,20.5022,-10.0711,71.19,11,0,6.98,MR,1616140303
Butaritari,3.0707,172.7902,81.73,77,0,9.8,KI,1616140365
Khatanga,71.9667,102.5,-15.92,93,100,9.01,RU,1616140386
Lingao,19.9103,109.6859,86.54,55,25,11.72,CN,1616140666
Dingle,10.9995,122.6711,87.22,64,23,9.89,PH,1616140699
Atuona,-9.8,-139.0333,80.11,81,3,12.5,PF,1616140700
Ushuaia,-54.8,-68.3,44.6,70,75,6.91,AR,1616140318
Bredasdorp,-34.5322,20.0403,64.4,68,75,5.75,ZA,1616140700
San Cristobal,7.7669,-72.225,64.6,93,48,2.1,VE,1616140700
Half Moon Bay,37.4636,-122.4286,53.6,93,90,8.05,US,1616140701
Rikitea,-23.1203,-134.9692,80.04,78,100,17.56,PF,1616140701
Faanui,-16.4833,-151.75,82.38,66,2,5.3,PF,1616140594
Shimoda,34.6667,138.95,60.8,67,75,10.36,JP,1616140483
Cherskiy,68.75,161.3,-25.58,99,0,4.09,RU,1616140377
Formosa do Rio Preto,-11.0483,-45.1931,67.33,94,100,1.41,BR,1616140702
Nemuro,43.3236,145.575,32.0,59,75,11.5,JP,1616140702
Kapaa,22.0752,-159.319,69.8,78,90,20.71,US,1616140310
Lebu,-37.6167,-73.65,52.05,89,0,3.56,CL,1616140702
Mackay,-21.15,149.2,80.6,78,90,9.22,AU,1616140646
Saint George,37.1041,-113.5841,54.0,58,1,5.75,US,1616140293
Hobart,-42.8794,147.3294,68.0,49,20,11.5,AU,1616140258
Hermanus,-34.4187,19.2345,64.99,77,98,1.01,ZA,1616140359
Columbus,39.9612,-82.9988,37.99,65,90,18.41,US,1616140471
Vaini,-21.2,-175.2,78.8,89,20,3.44,TO,1616140297
Terråk,65.087,12.3715,33.8,69,75,11.5,NO,1616140703
Chui,-33.6971,-53.4616,55.71,80,6,4.81,UY,1616140322
Carbonia,39.1672,8.5222,48.99,81,40,2.3,IT,1616140704
Qaanaaq,77.484,-69.3632,-10.21,81,100,6.4,GL,1616140704
Castro,-24.7911,-50.0119,62.31,96,84,6.85,BR,1616140404
Port Elizabeth,-33.918,25.5701,71.6,73,20,23.02,ZA,1616140433
Saint Anthony,45.0205,-93.218,35.6,59,1,4.45,US,1616140705
New Norfolk,-42.7826,147.0587,66.99,51,0,1.99,AU,1616140705
Beloha,-25.1667,45.05,93.56,36,0,5.03,MG,1616140552
Broome,42.2506,-75.833,28.99,50,1,16.11,US,1616140705
Pastavy,55.1168,26.8326,32.99,68,85,2.71,BY,1616140357
Kyren,51.6828,102.1408,26.85,66,81,1.52,RU,1616140706
Guerrero Negro,27.9769,-114.0611,57.04,82,13,11.79,MX,1616140374
Miles City,46.4083,-105.8406,37.4,60,1,13.8,US,1616140706
Hong Kong,22.2855,114.1577,82.4,54,40,6.91,HK,1616140414
Albany,42.6001,-73.9662,28.99,35,100,3.0,US,1616140175
Idlib,35.9306,36.6339,57.2,62,40,10.36,SY,1616140707
Saint-Louis,16.3333,-15.0,68.0,52,0,7.09,SN,1616140707
Jamestown,42.097,-79.2353,28.0,50,1,16.35,US,1616140707
Hasaki,35.7333,140.8333,57.0,62,40,11.5,JP,1616140708
Sitka,57.0531,-135.33,33.8,69,75,5.75,US,1616140592
Saint-Philippe,-21.3585,55.7679,86.0,70,20,26.46,RE,1616140708
Barrow,71.2906,-156.7887,-2.2,71,75,6.91,US,1616140320
Ugoofaaru,5.6667,73.0,83.44,64,59,7.54,MV,1616140564
Brae,60.3964,-1.353,44.6,93,75,5.75,GB,1616140544
Husavik,66.0449,-17.3389,50.0,62,75,16.11,IS,1616140608
Bluff,-46.6,168.3333,55.0,84,45,5.01,NZ,1616140709
Katsuura,35.1333,140.3,63.0,72,75,12.66,JP,1616140709
Upernavik,72.7868,-56.1549,-4.0,88,79,6.11,GL,1616140710
Bowen,-20.0167,148.2333,80.6,74,90,10.36,AU,1616140710
Roald,62.5833,6.1333,39.2,87,0,8.05,NO,1616140710
Sarangani,5.4033,125.4636,82.92,75,43,12.15,PH,1616140711
Eucaliptus,-17.5833,-67.5167,42.78,87,65,4.85,BO,1616140711
Todos Santos,23.45,-110.2167,60.01,68,0,1.01,MX,1616140711
Kinkala,-4.3614,14.7644,71.6,94,20,4.61,CG,1616140712
Bhuj,23.2667,69.6667,93.97,13,0,1.39,IN,1616140521
Marzuq,14.4,46.4667,85.66,8,0,7.54,YE,1616140460
Ribeira Grande,38.5167,-28.7,60.8,88,75,18.41,PT,1616140307
Nikolskoye,59.7035,30.7861,21.2,73,75,8.95,RU,1616140344
Hilo,19.7297,-155.09,68.0,83,90,5.75,US,1616140463
Puerto Ayora,-0.7393,-90.3518,75.0,96,99,4.47,EC,1616140713
Comodoro Rivadavia,-45.8667,-67.5,62.6,45,0,2.3,AR,1616140412
Kloulklubed,7.0419,134.2556,86.0,70,75,10.36,PW,1616140713
Haines Junction,60.7522,-137.5108,14.0,67,100,9.22,CA,1616140329
Kheri,27.9,80.8,98.87,10,71,12.01,IN,1616140709
Lago da Pedra,-4.3333,-45.1667,71.37,98,100,3.06,BR,1616140714
Nantucket,41.2835,-70.0995,35.01,97,100,42.86,US,1616140619
Smithers,54.7804,-127.1743,33.8,100,40,2.3,CA,1616140633
Chul'man,56.8479,124.9104,19.18,83,100,1.77,RU,1616140714
Kharp,66.8014,65.8081,2.28,95,91,4.38,RU,1616140410
Cap-aux-Meules,47.3821,-61.8597,24.8,93,100,21.85,CA,1616140502
Padang,-0.9492,100.3543,86.0,66,20,9.22,ID,1616140181
Grindavik,63.8424,-22.4338,44.6,100,90,23.02,IS,1616140638
Faya,18.3851,42.4509,73.4,21,0,8.05,SA,1616140715
Dikson,73.5069,80.5464,-27.81,92,0,9.71,RU,1616140716
Broken Hill,-31.95,141.4333,80.6,41,40,20.71,AU,1616140716
Kalmunai,7.4167,81.8167,78.87,81,100,8.1,LK,1616140311
Anchorage,61.2181,-149.9003,17.6,41,1,6.91,US,1616140716
Abadan,38.0507,58.2056,68.0,49,75,6.91,TM,1616140717
Mount Isa,-20.7333,139.5,95.0,24,69,6.91,AU,1616140409
Makakilo City,21.3469,-158.0858,69.8,68,90,9.22,US,1616140717
Hrebinka,50.1171,32.4361,36.46,77,100,4.97,UA,1616140717
Torbay,47.6666,-52.7314,37.0,93,90,27.63,CA,1616140718
Nhulunbuy,-12.2333,136.7667,77.0,94,90,3.44,AU,1616140718
Fenelon Falls,44.5334,-78.7496,23.0,39,0,6.91,CA,1616140718
Eura,61.1333,22.1333,19.4,68,0,9.22,FI,1616140719
Santa Cruz de la Sierra,-17.8,-63.1667,71.6,83,75,6.91,BO,1616140719
Bilibino,68.0546,166.4372,-15.63,80,88,1.97,RU,1616140520
Jinxiang,27.4327,120.6062,63.72,85,32,6.67,CN,1616140719
Omboué,-1.5746,9.2618,78.53,83,94,4.14,GA,1616140720
Ossora,59.2353,163.0719,16.34,95,100,6.24,RU,1616140720
Najrān,17.4924,44.1277,84.2,14,0,4.61,SA,1616140720
Aleksandrovskoye,44.7142,43.0008,48.2,66,40,4.47,RU,1616140721
Nome,64.5011,-165.4064,-11.2,70,1,3.44,US,1616140505
Provideniya,64.3833,-173.3,-8.81,94,0,7.9,RU,1616140556
Airai,-8.9266,125.4092,67.78,87,100,1.59,TL,1616140406
Tashla,51.7716,52.7427,31.71,98,100,14.61,RU,1616140721
Avarua,-21.2078,-159.775,77.0,88,40,3.44,CK,1616140399
East London,-33.0153,27.9116,71.6,68,75,18.41,ZA,1616140491
Iqaluit,63.7506,-68.5145,-23.01,69,1,13.8,CA,1616140606
Ajdabiya,30.7554,20.2263,69.8,26,94,21.41,LY,1616140722
Souillac,-20.5167,57.5167,84.2,70,40,10.36,MU,1616140400
Tabou,4.423,-7.3528,78.13,80,88,0.76,CI,1616140407
Pringsewu,-5.3582,104.9744,84.63,77,95,3.78,ID,1616140723
Pevek,69.7008,170.3133,-20.42,92,50,1.07,RU,1616140506
Sakakah,29.9697,40.2064,62.6,34,0,4.61,SA,1616140568
Lüderitz,-26.6481,15.1594,70.7,49,12,18.19,NA,1616140530
Hervey Bay,-25.2986,152.8535,78.01,81,12,4.0,AU,1616140723
Khovd,48.0056,91.6419,26.11,39,37,4.92,MN,1616140724
Hattiesburg,31.3271,-89.2903,51.8,58,90,12.66,US,1616140724
Shuyskoye,59.3736,41.0305,25.32,89,95,4.68,RU,1616140725
Saint-Augustin,51.226,-58.6502,26.2,89,85,15.59,CA,1616140725
Cayenne,4.9333,-52.3333,78.01,94,90,7.18,GF,1616140385
Brčko,44.8728,18.8083,37.0,100,75,5.75,BA,1616140562
Sterling,39.0062,-77.4286,43.0,84,100,3.0,US,1616140478
General Roca,-39.0333,-67.5833,53.6,82,0,2.3,AR,1616140726
Iquique,-20.2208,-70.1431,66.2,63,0,3.44,CL,1616140302
Ongandjera,-17.8833,15.0667,75.63,65,72,10.04,NA,1616140726
Katherine,-14.4667,132.2667,77.0,83,40,3.44,AU,1616140726
Kajaani,64.2273,27.7285,6.8,78,0,3.44,FI,1616140627
Stornoway,58.2093,-6.3865,46.99,93,75,2.3,GB,1616140727
Dubrovytsya,51.5744,26.565,33.19,71,16,3.87,UA,1616140727
Lavrentiya,65.5833,-171.0,-15.07,97,52,2.59,RU,1616140502
Yeppoon,-23.1333,150.7333,80.6,69,75,10.36,AU,1616140487
São José da Coroa Grande,-8.8978,-35.1478,77.07,83,29,5.91,BR,1616140728
Ürümqi,43.801,87.6005,33.8,60,0,6.71,CN,1616140728
Mar del Plata,-38.0023,-57.5575,54.0,86,0,3.0,AR,1616140275
Kungurtug,50.5994,97.5228,21.02,63,100,6.73,RU,1616140729
Kaohsiung City,22.6163,120.3133,82.4,51,40,10.36,TW,1616140729
Chara,56.9064,118.2631,20.35,67,99,1.74,RU,1616140468
Ponta do Sol,32.6667,-17.1,59.0,28,0,1.99,PT,1616140369
Vrangel',42.7297,133.0839,38.37,53,84,8.99,RU,1616140730
Japura,-0.3167,102.35,86.36,76,84,3.89,ID,1616140730
Yellowknife,62.456,-114.3525,12.2,85,1,5.75,CA,1616140419
Mahébourg,-20.4081,57.7,84.2,70,40,10.36,MU,1616140373
Tigzirt,36.8886,4.1198,50.99,78,100,9.6,DZ,1616140730
Tomé,-36.6167,-72.95,57.2,88,0,1.14,CL,1616140731
Carnarvon,-24.8667,113.6333,91.4,33,0,13.8,AU,1616140410
Saint Paul Harbor,57.79,-152.4072,19.4,49,1,10.36,US,1616140731
Villa Tecolutilla,18.2833,-93.3167,72.84,84,100,15.19,MX,1616140731
Gizo Government Station,-8.103,156.8419,83.66,68,76,3.58,SB,1616140732
Constitución,-35.3333,-72.4167,51.48,86,0,3.71,CL,1616140437
Touros,-5.1989,-35.4608,73.4,94,40,2.3,BR,1616140504
Longyearbyen,78.2186,15.6401,30.2,86,90,9.22,SJ,1616140319
Ibiá,-19.4783,-46.5389,63.0,100,26,3.04,BR,1616140732
Tuktoyaktuk,69.4541,-133.0374,-16.19,100,98,8.93,CA,1616140449
Paranaíba,-19.6772,-51.1908,69.62,89,95,3.69,BR,1616140733
Abhā,18.2164,42.5053,73.4,21,0,8.05,SA,1616140733
Suba,10.8438,121.0102,84.2,74,8,9.93,PH,1616140733
Moscow,55.7522,37.6156,32.0,74,75,6.71,RU,1616140599
Buta,2.7858,24.73,90.34,47,83,1.1,CD,1616140734
Burnie,-41.0667,145.9167,63.7,79,0,7.81,AU,1616140734
Coquimbo,-29.9533,-71.3436,57.2,77,75,2.3,CL,1616140734
Prien,30.1819,-93.2738,51.8,66,1,9.22,US,1616140735
Norman Wells,65.282,-126.8329,3.2,85,90,16.11,CA,1616140332
General Pico,-35.6566,-63.7568,48.74,62,0,5.35,AR,1616140475
Coaticook,45.1334,-71.7991,15.8,53,24,8.05,CA,1616140735
Fairbanks,64.8378,-147.7164,6.8,78,90,2.55,US,1616140476
Richards Bay,-28.783,32.0377,82.87,64,0,2.71,ZA,1616140736
Simao,22.7886,100.9748,88.38,14,93,9.62,CN,1616140737
San Jose,37.3394,-121.895,55.4,87,75,8.05,US,1616140533
Guiratinga,-16.3494,-53.7583,68.74,98,100,2.48,BR,1616140738
Tuatapere,-46.1333,167.6833,55.0,84,63,5.01,NZ,1616140425
Östersund,63.1792,14.6357,19.99,67,20,8.05,SE,1616140512
Kavieng,-2.5744,150.7967,83.77,73,90,6.96,PG,1616140738
São Filipe,14.8961,-24.4956,70.86,75,11,7.38,CV,1616140739
Lagoa,39.05,-27.9833,58.44,82,100,17.07,PT,1616140739
Lorengau,-2.0226,147.2712,83.03,75,48,5.73,PG,1616140739
Raudeberg,61.9875,5.1352,39.0,96,52,11.03,NO,1616140740
Taoudenni,22.6783,-3.9836,74.86,14,0,12.03,ML,1616140740
Gesves,50.4015,5.0746,37.0,86,75,13.8,BE,1616140741
Portland,45.5234,-122.6762,46.0,87,53,1.01,US,1616140392
Saskylakh,71.9167,114.0833,-19.07,91,100,12.64,RU,1616140423
Novy Urengoy,66.0833,76.6333,3.34,94,100,11.54,RU,1616140741
Ust'-Kulom,61.6864,53.6902,29.16,91,98,2.77,RU,1616140741
Chokurdakh,70.6333,147.9167,-24.68,79,0,8.86,RU,1616140742
Shenjiamen,29.9576,122.298,53.71,97,100,4.47,CN,1616140742
Southbridge,42.0751,-72.0334,32.0,73,100,1.01,US,1616140742
Nizwá,22.9333,57.5333,95.02,9,0,3.65,OM,1616140645
Finschhafen,-6.6024,147.8681,83.53,74,3,7.76,PG,1616140743
Ambon City,-3.6954,128.1814,86.0,70,40,4.61,ID,1616140743
Kondinskoye,59.6481,67.41,25.03,91,100,9.66,RU,1616140743
Kamina,-8.7386,24.9906,79.79,67,50,1.86,CD,1616140744
Lokoja,7.8024,6.743,80.64,69,100,3.96,NG,1616140744
Yangi Marg`ilon,40.4272,71.7189,59.0,38,100,2.3,UZ,1616140744
San Patricio,28.017,-97.5169,59.0,41,1,6.91,US,1616140341
Erdenet,49.0333,104.0833,22.15,62,100,6.26,MN,1616140745
Wiarton,44.7407,-81.1332,27.0,46,1,14.97,CA,1616140745
Nanortalik,60.1432,-45.2371,24.3,77,43,4.81,GL,1616140418
Zyryanka,65.75,150.85,-17.37,95,62,3.87,RU,1616140746
Orotukan,62.2667,151.7,-16.2,100,97,2.15,RU,1616140746
Jilin,43.0,126.0,48.97,26,5,4.83,CN,1616140746
Tasiilaq,65.6145,-37.6368,30.2,74,20,10.36,GL,1616140368
Lethem,3.3803,-59.7968,74.46,74,99,11.79,GY,1616140470
Wagar,16.1525,36.2032,90.09,32,26,7.92,SD,1616140747
Kangaatsiaq,68.3065,-53.4641,11.75,73,100,8.61,GL,1616140747
Praia da Vitória,38.7333,-27.0667,59.0,82,75,13.42,PT,1616140747
Veriora,58.0079,27.3551,28.99,63,0,8.05,EE,1616140748
Bubaque,11.2833,-15.8333,75.54,64,0,7.58,GW,1616140385
Kormilovka,55.0026,74.1028,24.8,50,0,11.18,RU,1616140749
Lázaro Cárdenas,17.9583,-102.2,70.2,81,0,4.99,MX,1616140750
Knyaze-Volkonskoye,48.4642,135.4567,33.8,60,40,4.47,RU,1616140751
Kenora,49.8167,-94.4337,33.8,51,20,9.22,CA,1616140247
Rutana Province,-3.8667,30.1,70.41,65,39,3.69,BI,1616140751
Kisangani,0.5167,25.2,89.82,46,2,0.76,CD,1616140751
Kahului,20.8947,-156.47,68.0,73,1,11.5,US,1616140208
Merauke,-8.4667,140.3333,82.53,78,100,5.44,ID,1616140508
West Linton,55.7497,-3.3561,42.01,100,20,1.14,GB,1616140752
Codrington,-38.2667,141.9667,66.94,77,0,15.19,AU,1616140593
Yevlax,40.6089,47.1492,53.6,50,90,14.97,AZ,1616140752
Arraial do Cabo,-22.9661,-42.0278,75.22,88,27,16.11,BR,1616140421
Eyl,7.9803,49.8164,83.84,59,87,13.47,SO,1616140753
Čierna nad Tisou,48.417,22.0887,35.6,64,64,8.95,SK,1616140754
Beyneu,45.3167,55.2,43.57,65,76,24.54,KZ,1616140754
Muros,42.7762,-9.0603,48.99,72,89,8.01,ES,1616140511
Aktas,49.7789,72.9608,32.0,59,0,17.9,KZ,1616140754
Sovetskiy,61.3614,63.5842,27.41,91,100,3.06,RU,1616140755
Chopda,21.25,75.3,99.68,17,2,4.68,IN,1616140755
Saint-François,46.4154,3.9054,35.01,100,90,6.91,FR,1616140646
Lompoc,34.6391,-120.4579,55.4,76,75,4.27,US,1616140388
Bambous Virieux,-20.3428,57.7575,84.2,70,40,10.36,MU,1616140755
Águas Formosas,-17.0822,-40.9358,66.79,98,91,0.94,BR,1616140756
Vilyuysk,63.7553,121.6247,22.62,90,100,10.85,RU,1616140578
Russell,32.3502,-85.1999,50.0,62,90,10.36,US,1616140756
Debre Tabor,11.85,38.0167,70.43,23,100,4.34,ET,1616140757
Taltal,-25.4,-70.4833,63.82,88,94,1.61,CL,1616140436
Sistranda,63.7256,8.834,35.6,87,75,14.97,NO,1616140434
Wana,32.2989,69.5725,71.37,29,0,5.77,PK,1616140758
Fare,-16.7,-151.0167,82.17,69,5,4.09,PF,1616140759
Puerto del Rosario,28.5004,-13.8627,62.6,72,20,13.8,ES,1616140577
Prado,-17.3411,-39.2208,73.92,89,100,1.23,BR,1616140759
Kurumkan,54.3,110.3,23.02,76,65,3.91,RU,1616140759
Bengkulu,-3.8004,102.2655,83.43,71,85,6.98,ID,1616140378
Lata,40.1629,-8.3327,48.99,62,5,1.01,PT,1616140505
Pandan,14.0453,124.1694,83.89,71,23,9.13,PH,1616140760
Meulaboh,4.1363,96.1285,85.84,66,30,6.98,ID,1616140405
Marsh Harbour,26.5412,-77.0636,73.49,83,0,20.02,BS,1616140760
Santa Rosa,14.3122,121.1114,91.4,62,40,9.22,PH,1616140529
Jiangyou,31.7667,104.7167,61.77,62,100,1.21,CN,1616140277
Alpena,45.0617,-83.4327,28.0,68,1,4.61,US,1616140761
Ilulissat,69.2167,-51.1,15.8,53,20,19.57,GL,1616140369
Xiaoweizhai,26.1903,107.5125,73.92,75,100,8.12,CN,1616140761
La Libertad,-2.2333,-80.9,77.67,81,100,5.41,EC,1616140762
Todos Santos Cuchumatán,15.5167,-91.6167,55.4,88,75,2.15,GT,1616140762
Lékoni,-1.5843,14.2591,77.59,75,100,7.61,GA,1616140762
Key West,24.5557,-81.7826,77.0,78,40,8.05,US,1616140763
Bilma,18.6853,12.9164,91.15,12,1,7.61,NE,1616140763
Rawson,-43.3002,-65.1023,64.11,43,1,17.13,AR,1616140555
Pangnirtung,66.1451,-65.7125,-16.51,70,0,3.69,CA,1616140763
Jos,9.9167,8.9,77.9,50,91,6.78,NG,1616140764
Tiznit Province,29.5833,-9.5,52.56,78,99,9.95,MA,1616140613
Fort Saint James,54.4333,-124.25,32.38,97,100,1.86,CA,1616140764
Ostrovnoy,68.0531,39.5131,11.03,83,9,4.74,RU,1616140765
Kalabo,-14.97,22.6814,74.86,71,99,7.9,ZM,1616140765
Dudinka,69.4058,86.1778,-14.73,88,100,1.77,RU,1616140642
Hithadhoo,-0.6,73.0833,82.65,72,95,12.46,MV,1616140367
Salalah,17.0151,54.0924,82.4,61,0,8.05,OM,1616140364
Adamantas,36.7333,24.4333,59.0,72,7,18.41,GR,1616140766
Tsimmerbude,54.675,20.1347,30.99,74,75,17.9,RU,1616140766
Rūdbār,30.15,62.6,93.9,12,56,12.46,AF,1616140766
Ulladulla,-35.35,150.4667,66.99,100,75,10.36,AU,1616140766
Cortes,41.9395,-1.4396,48.99,75,90,12.66,ES,1616140664
Qūchān,37.106,58.5095,60.93,48,21,12.59,IR,1616140767
Kashgar,39.4547,75.9797,44.6,36,20,4.47,CN,1616140767
Severo-Kuril'sk,50.6789,156.125,30.69,95,95,11.48,RU,1616140767
Hamilton,39.1834,-84.5333,37.99,70,90,23.02,US,1616140628
Sinazongwe,-17.2614,27.4618,78.87,69,0,3.94,ZM,1616140768
San Policarpo,12.1791,125.5072,84.36,69,23,7.36,PH,1616140573
Quatre Cocos,-20.2078,57.7625,84.2,70,40,10.36,MU,1616140670
Korla,41.7597,86.1469,40.44,69,61,9.35,CN,1616140769
Livingstonia,-10.606,34.1063,71.15,78,73,5.68,MW,1616140770
Yulara,-25.2406,130.9889,84.2,20,100,17.27,AU,1616140498
Auki,-8.7676,160.7034,80.58,80,89,1.63,SB,1616140770
São Félix do Xingu,-6.6447,-51.995,70.5,99,98,1.92,BR,1616140770
Vanavara,60.34,102.2797,23.9,85,100,11.63,RU,1616140431
Mount Gambier,-37.8333,140.7667,75.2,57,0,14.97,AU,1616140550
Ola,59.5833,151.2833,7.23,66,0,13.04,RU,1616140641
Dailly,46.2,7.0333,34.0,86,20,5.75,CH,1616140771
Erzin,36.9559,36.2,59.0,75,8,9.24,TR,1616140772
La Ronge,55.1001,-105.2842,32.0,74,5,4.61,CA,1616140772
Copiapó,-27.3667,-70.3333,60.8,82,90,4.61,CL,1616140772
Qax,41.4225,46.9242,46.4,57,75,4.61,AZ,1616140773
Bud,39.447,-86.1758,33.8,64,1,14.97,US,1616140773
Port Keats,-14.25,129.55,83.98,77,84,7.29,AU,1616140773
Baraboo,43.4711,-89.7443,30.0,63,1,6.91,US,1616140774
Nishihara,26.1842,127.7558,77.0,73,75,5.75,JP,1616140613
Graaff-Reinet,-32.2522,24.5308,70.0,69,47,4.0,ZA,1616140774
Chiredzi,-21.05,31.6667,83.79,50,1,5.14,ZW,1616140774
Taiyuan,37.8694,112.5603,33.8,93,90,4.47,CN,1616140775
Karpogory,64.0019,44.4451,9.52,91,100,6.87,RU,1616140775
Karratha,-20.7377,116.8463,88.38,44,81,19.35,AU,1616140681
Maryborough,-25.5333,152.7,78.01,81,2,4.0,AU,1616140775
Charlestown,-32.95,151.6667,73.0,90,100,1.99,AU,1616140776
Paka,4.6374,103.4368,87.8,66,40,9.22,MY,1616140776
Tiksi,71.6872,128.8694,-2.04,99,100,6.76,RU,1616140450
Snåase,64.2457,12.3778,30.2,64,75,11.5,NO,1616140776
Yumen,40.2833,97.2,41.99,17,0,21.63,CN,1616140777
Kendari,-3.945,122.4989,84.02,77,98,3.15,ID,1616140777
Te Anau,-45.4167,167.7167,50.94,90,0,4.7,NZ,1616140777
Talnakh,69.4865,88.3972,-12.14,92,100,4.0,RU,1616140778
Esperance,-33.8667,121.9,86.0,37,0,14.97,AU,1616140432
Port Hawkesbury,45.6169,-61.3485,30.99,93,90,8.05,CA,1616140778
Gaoual,11.75,-13.2,70.41,71,31,1.34,GN,1616140778
George Town,5.4112,100.3354,91.4,51,20,11.5,MY,1616140741
Uruçuí,-7.2294,-44.5561,73.53,90,100,0.81,BR,1616140779
Bayjī,34.9311,43.487,66.34,31,0,7.43,IQ,1616140779
Saldanha,-33.0117,17.9442,66.2,72,0,17.27,ZA,1616140533
Myaundzha,63.0494,147.1858,-11.13,93,19,3.06,RU,1616140780
Flin Flon,54.7682,-101.865,27.64,91,0,6.15,CA,1616140355
Pekalongan,-6.8886,109.6753,84.43,77,18,9.1,ID,1616140780
Laas,46.6166,10.7002,37.99,85,0,6.91,IT,1616140352
Mangit,40.5971,70.9607,60.8,31,100,2.3,UZ,1616140780
Deqing,30.5448,119.9599,57.0,94,100,1.88,CN,1616140781
Coari,-4.085,-63.1414,71.69,99,100,2.68,BR,1616140781
Putatan,5.9258,116.0609,89.01,74,20,8.05,MY,1616140781
Westport,41.1415,-73.3579,39.2,70,90,19.57,US,1616140404
Tikrit,34.6071,43.6782,67.08,28,0,7.7,IQ,1616140782
Baoro,5.6667,15.9667,80.26,63,40,4.27,CF,1616140782
Beringovskiy,63.05,179.3167,-5.78,99,100,9.08,RU,1616140534
Vestmannaeyjar,63.4427,-20.2734,46.6,93,100,21.21,IS,1616140616
Sabang,5.8933,95.3214,83.57,66,0,8.99,ID,1616140783
Pekan Nenas,1.51,103.5141,95.0,52,20,4.61,MY,1616140783
Rome,43.2128,-75.4557,28.4,40,1,9.22,US,1616140783
Rundu,-17.9333,19.7667,77.31,60,77,8.66,NA,1616140784
Martaban,16.5314,97.6111,94.37,36,69,13.0,MM,1616140784
Peniche,39.3558,-9.3811,51.01,72,30,3.0,PT,1616140784
Flinders,-34.5833,150.8552,70.0,86,100,5.01,AU,1616140341
Dongsheng,39.8161,109.9776,33.03,91,100,29.35,CN,1616140567
Naze,28.3667,129.4833,75.2,73,75,11.5,JP,1616140339
Tekeli,44.83,78.8239,40.53,91,0,6.15,KZ,1616140785
Birao,10.2849,22.7882,92.68,34,99,5.79,CF,1616140785
Kieta,-6.2167,155.6333,81.59,77,100,3.33,PG,1616140786
Ocampo,21.65,-101.5,42.19,64,0,6.08,MX,1616140786
Puerto Colombia,10.9878,-74.9547,77.0,94,0,8.05,CO,1616140573
Victoria Point,-27.5833,153.3,78.01,74,5,4.0,AU,1616140786
Copala,16.65,-98.9833,72.99,73,0,4.25,MX,1616140787
Sioux Lookout,50.1001,-91.917,32.0,40,1,5.75,CA,1616140497
Leh,34.1667,77.5833,31.68,40,4,3.47,IN,1616140787
Kot Samaba,28.5522,70.4684,96.28,12,0,6.17,PK,1616140562
Coahuayana Viejo,18.7333,-103.6833,66.45,84,0,3.31,MX,1616140787
Kununurra,-15.7667,128.7333,75.2,100,75,17.27,AU,1616140424
Rehoboth,-23.3167,17.0833,75.2,24,0,5.84,NA,1616140788
Bulgan,48.8125,103.5347,23.79,62,99,3.4,MN,1616140788
Altay,47.8667,88.1167,21.13,64,0,0.76,CN,1616140788
Houma,29.5958,-90.7195,54.0,71,1,6.91,US,1616140789
Oranjemund,-28.55,16.4333,65.91,66,0,16.62,NA,1616140789
Bumba,2.1833,22.4667,87.91,50,31,1.39,CD,1616140789
Vardø,70.3705,31.1107,19.4,86,20,18.41,NO,1616140790
Ifakara,-8.1333,36.6833,82.27,79,77,0.87,TZ,1616140790
Kiryat Gat,31.61,34.7642,66.0,53,35,1.01,IL,1616140610
Barra do Garças,-15.89,-52.2567,69.19,97,100,1.74,BR,1616140702
Pisco,-13.7,-76.2167,68.0,83,0,3.44,PE,1616140527
Neuquén,-38.9516,-68.0591,53.6,82,0,2.3,AR,1616140791
Ranst,51.19,4.5677,37.99,75,0,9.22,BE,1616140523
Noumea,-22.2763,166.4572,78.8,69,20,1.14,NC,1616140791
Mabaruma,8.2,-59.7833,69.12,96,96,1.54,GY,1616140791
Douglas,41.3,-96.167,35.01,80,1,3.53,US,1616140792
Manado,1.487,124.8455,78.8,89,40,4.61,ID,1616140792
Mehrān,33.1222,46.1646,59.0,31,0,6.91,IR,1616140792
Hohhot,40.8106,111.6522,39.2,87,40,6.71,CN,1616140793
Mayo,38.8876,-76.5119,46.0,87,90,14.97,US,1616140517
Halifax,44.6453,-63.5724,33.8,93,100,6.91,CA,1616140471
Kollam,8.8833,76.6,89.6,66,75,5.75,IN,1616140793
Zaozyornoye,45.1582,33.2787,44.01,57,85,12.57,UA,1616140794
Kadoshkino,54.0257,44.4191,25.38,91,87,7.52,RU,1616140794
Zemio,5.0314,25.1361,90.91,46,78,1.19,CF,1616140794
Petropavlovsk-Kamchatskiy,53.0452,158.6483,39.2,56,75,8.95,RU,1616140306
Chernyshevskiy,63.0128,112.4714,19.45,86,100,12.68,RU,1616140795
Hue,16.4667,107.6,84.2,70,20,12.66,VN,1616140542
Saryozek,44.3583,77.9753,46.15,43,0,9.42,KZ,1616140795
Tromsø,69.6496,18.957,28.99,80,75,36.82,NO,1616140558
Narsaq,60.9167,-46.05,24.8,50,20,6.91,GL,1616140640
Grand Forks,47.9417,-97.4337,33.8,80,1,11.5,US,1616140700
Kanungu,-0.9575,29.7897,78.64,44,46,3.83,UG,1616140796
Orsha,54.5153,30.4053,30.2,74,75,4.47,BY,1616140796
Ahome,25.9167,-109.1833,60.01,55,0,4.0,MX,1616140796
Dodge City,37.7528,-100.0171,33.01,86,1,4.61,US,1616140797
Kasempa,-13.4584,25.8338,68.11,93,86,5.17,ZM,1616140797
Constantine,36.365,6.6147,41.0,87,75,1.14,DZ,1616140201
Kaeo,-35.1,173.7833,63.0,79,0,1.99,NZ,1616140451
Prince Rupert,54.3161,-130.3201,42.8,81,40,8.05,CA,1616140798
Almeirim,-1.5233,-52.5817,71.96,98,100,1.99,BR,1616140798
Skagen,57.7209,10.5839,33.8,75,40,11.5,DK,1616140798
Tilichiki,60.4667,166.1,2.79,94,100,9.01,RU,1616140398
Gweta,-20.1833,25.2333,82.89,41,24,13.6,BW,1616140799
Olafsvik,64.8945,-23.7142,39.38,91,100,4.25,IS,1616140516
Pryluky,50.5932,32.3876,34.93,87,100,3.62,UA,1616140799
Belmonte,-15.8631,-38.8828,71.6,94,40,2.3,BR,1616140440
Amahai,-3.3333,128.9167,83.66,79,92,3.04,ID,1616140799
Radford,37.1318,-80.5764,48.0,100,90,10.36,US,1616140749
Salmo,49.1999,-117.2689,43.0,93,99,4.61,CA,1616140800
Teluk Nibung,3.001,99.8164,86.18,65,100,8.95,ID,1616140800
Três Passos,-27.4556,-53.9319,58.48,91,0,6.22,BR,1616140800
Havøysund,70.9963,24.6622,24.8,80,20,28.77,NO,1616140605
Ada,43.4166,-116.1262,57.2,33,90,9.22,US,1616140428
Mountrath,52.9989,-7.4728,46.0,90,69,5.01,IE,1616140801
Kulhudhuffushi,6.6221,73.07,82.71,66,77,7.4,MV,1616140802
Pitimbu,-7.4706,-34.8086,73.4,100,20,3.44,BR,1616140496
Lashio,22.9333,97.75,95.41,11,63,6.2,MM,1616140802
Clyde River,70.4692,-68.5914,-22.0,76,1,1.86,CA,1616140335
Rey Bouba,8.6724,14.1786,86.59,44,99,6.64,CM,1616140803
Makkah al Mukarramah,21.4267,39.8261,90.57,26,0,6.15,SA,1616140508
Trairi,-3.2778,-39.2689,73.69,94,85,5.03,BR,1616140550
Folkestone,51.0833,1.1833,43.0,82,2,8.01,GB,1616140804
Kruisfontein,-34.0033,24.7314,72.0,63,14,8.01,ZA,1616140602
Santa Vitória do Palmar,-33.5189,-53.3681,56.34,81,7,4.72,BR,1616140804
Reconquista,-29.15,-59.65,57.67,74,0,6.08,AR,1616140326
Tawang Town,27.5833,91.8667,56.68,53,42,7.54,IN,1616140805
Gorontalo,0.5412,123.0595,82.51,86,100,3.0,ID,1616140806
Sierre,46.2919,7.5356,33.8,86,20,5.75,CH,1616140807
Pacific Grove,36.6177,-121.9166,55.0,87,80,1.99,US,1616140315
Rantepao,-2.9701,119.8978,76.75,91,100,1.77,ID,1616140808
Okhotsk,59.3833,143.3,14.45,71,0,14.12,RU,1616140809
São Geraldo do Araguaia,-6.4006,-48.555,71.91,98,100,0.78,BR,1616140809
Shikarpur,27.9571,68.6379,89.6,43,0,4.47,PK,1616140810
Kodinsk,58.6881,99.1844,26.28,88,100,10.27,RU,1616140650
Wangqing,43.3218,129.7634,46.96,37,92,1.7,CN,1616140811
Le Pont-de-Claix,45.1244,5.7064,39.0,80,0,3.44,FR,1616140474
Kudahuvadhoo,2.6708,72.8944,83.28,70,29,7.54,MV,1616140812
Mozarlândia,-14.7447,-50.5706,70.99,93,100,2.59,BR,1616140812
Quang Ngai,15.1167,108.8,82.6,71,0,8.72,VN,1616140813
Atikokan,48.7555,-91.6216,29.35,85,3,7.05,CA,1616140813
Vila Franca do Campo,37.7167,-25.4333,57.2,82,40,5.75,PT,1616140466
Cintalapa,16.6951,-93.7272,67.59,88,98,10.65,MX,1616140814
Mizdah,31.4451,12.9801,58.14,67,91,10.67,LY,1616140814
Imbituba,-28.24,-48.6703,73.4,73,40,9.22,BR,1616140815
Las Cruces,32.3123,-106.7783,52.0,28,1,6.91,US,1616140815
Ternate,0.8,127.4,83.44,74,100,7.45,ID,1616140816
Carutapera,-1.195,-46.02,73.2,94,100,2.68,BR,1616140816
Mikkeli,61.6886,27.2723,17.6,67,0,7.87,FI,1616140817
Qui Nhon,13.7667,109.2333,81.16,72,0,8.34,VN,1616140448
Cabedelo,-6.9811,-34.8339,73.4,100,20,3.44,BR,1616140817
Zhezkazgan,47.8043,67.7144,33.13,69,100,20.56,KZ,1616140817
Mangla,31.8931,72.3817,92.25,17,0,6.13,PK,1616140764
Namatanai,-3.6667,152.4333,82.35,71,74,7.4,PG,1616140468
Nolinsk,57.5596,49.9363,26.6,91,92,6.15,RU,1616140818
Bathsheba,13.2167,-59.5167,75.2,64,75,14.97,BB,1616140819
Buala,-8.145,159.5921,81.36,76,52,2.08,SB,1616140338
Izhma,65.0083,53.9113,13.55,94,100,7.7,RU,1616140819
Jamalteca,14.7,-87.5833,69.98,92,87,1.21,HN,1616140820
Balclutha,-46.2339,169.75,57.99,63,44,4.0,NZ,1616140820
Akureyri,65.6835,-18.0878,50.0,62,75,16.11,IS,1616140821
Mago,53.2514,140.1822,24.67,75,80,3.13,RU,1616140821
Isangel,-19.55,169.2667,76.8,80,100,12.66,VU,1616140822
Porosozero,62.7191,32.727,11.91,89,100,9.55,RU,1616140823
Sept-Îles,50.2001,-66.3821,5.0,47,1,10.36,CA,1616140348
Wāngjing,24.6,94.0333,77.0,57,20,6.91,IN,1616140824
Homer,59.6425,-151.5483,19.99,57,1,9.53,US,1616140812
San Andrés,12.5847,-81.7006,80.6,78,75,12.66,CO,1616140343
Great Yarmouth,52.6083,1.7305,45.0,87,20,3.44,GB,1616140824
Zhigansk,66.7697,123.3711,20.37,81,100,11.63,RU,1616140478
Bukachacha,52.9833,116.9167,26.73,74,100,4.14,RU,1616140825
Nyurba,63.2842,118.3319,22.64,92,100,11.07,RU,1616140825
Banjar,-8.19,114.9675,87.8,74,20,13.8,ID,1616140412
Kholodnyy,62.7167,147.95,-10.17,94,30,0.81,RU,1616140826
Mahibadhoo,3.7833,72.9667,83.23,71,43,9.22,MV,1616140827
Ereymentau,51.6199,73.1033,31.33,73,100,8.23,KZ,1616140848
Ancud,-41.8697,-73.8203,48.99,100,0,3.44,CL,1616140439
Mahajanga,-15.7167,46.3167,82.4,74,20,5.75,MG,1616140411
Porto Torres,40.835,8.3972,44.6,93,40,2.3,IT,1616140849
Bakchar,57.0186,82.0711,28.13,90,100,11.3,RU,1616140337
Klaksvík,62.2266,-6.589,44.6,100,20,8.05,FO,1616140850
Santa Maria,-29.6842,-53.8069,59.43,98,4,5.68,BR,1616140850
Ubari,26.5921,12.7805,78.46,15,0,17.72,LY,1616140851
Tuy Hoa,13.0833,109.3,81.95,73,1,9.4,VN,1616140851
Menzel Salem,35.8567,8.4765,42.8,70,40,5.75,TN,1616140852
Moses Lake,47.1301,-119.2781,48.2,66,75,5.75,US,1616140583
Sørland,67.667,12.6934,37.4,93,90,32.21,NO,1616140568
Grand-Santi,4.25,-54.3833,66.42,99,28,1.32,GF,1616140852
North Bend,43.4065,-124.2243,48.99,81,75,9.22,US,1616140853
Ville-Marie,47.3335,-79.433,14.0,73,1,4.61,CA,1616140853
Tyubuk,56.0552,60.9405,27.57,92,100,9.66,RU,1616140854
Oskaloosa,41.2964,-92.6444,33.8,64,1,4.61,US,1616140854
Tual,-5.6667,132.75,84.38,67,93,7.27,ID,1616140855
Oleksandrivka,46.8383,32.7612,39.2,93,90,8.95,UA,1616140855
Murmashi,68.8154,32.8115,17.6,73,0,4.79,RU,1616140856
Kaitangata,-46.2817,169.8464,57.99,63,60,4.0,NZ,1616140856
Bisert',56.8617,59.0523,31.03,90,99,6.71,RU,1616140857
Sorong,-0.8833,131.25,84.31,73,24,9.69,ID,1616140857
Bukama,-9.2,25.85,81.28,75,92,2.48,CD,1616140858
Caxito,-8.5785,13.6643,82.4,74,75,6.91,AO,1616140858
Morris,40.8334,-74.5329,37.4,35,90,18.41,US,1616140859
Hobyo,5.3505,48.5268,86.27,61,3,14.43,SO,1616140859
Luganville,-15.5333,167.1667,80.13,83,62,5.61,VU,1616140859
Ranong,9.9658,98.6348,95.0,49,40,5.75,TH,1616140860
Dumra,26.5667,85.5167,100.13,9,100,15.03,IN,1616140861
Leshukonskoye,64.8989,45.7622,9.23,93,100,6.8,RU,1616140861
Abalak,58.1286,68.5944,28.02,90,100,9.37,RU,1616140862
Inhambane,-23.865,35.3833,84.2,70,40,0.45,MZ,1616140862
‘Ewa Beach,21.3156,-158.0072,69.8,68,90,9.22,US,1616140509
Port Hedland,-20.3167,118.5667,82.4,54,90,27.63,AU,1616140862
Ketchikan,55.3422,-131.6461,37.62,98,100,2.89,US,1616140863
Oistins,13.0667,-59.5333,75.2,64,75,14.97,BB,1616140863
Los Llanos de Aridane,28.6585,-17.9182,62.6,39,20,8.05,ES,1616140591
Kyra,49.5776,111.9753,26.92,55,43,11.03,RU,1616140864
Quincy,42.2529,-71.0023,37.4,86,100,11.5,US,1616140864
Roswell,34.0232,-84.3616,45.0,81,75,8.05,US,1616140864
Disraeli,45.9001,-71.3491,12.0,59,0,4.0,CA,1616140865
Tongliao,43.6125,122.2653,49.24,21,100,7.2,CN,1616140865
Yushu,44.8,126.5333,40.15,56,70,5.68,CN,1616140815
Alès,44.1333,4.0833,45.0,52,0,8.05,FR,1616140866
Berlevåg,70.8578,29.0864,19.4,86,100,25.32,NO,1616140421
Buluang,13.3068,123.3425,84.24,77,84,3.2,PH,1616140866
Dhidhdhoo,6.8833,73.1,82.87,67,51,7.02,MV,1616140623
Arrondissement de Villeneuve-sur-Lot,44.5,0.6667,42.8,93,90,5.75,FR,1616140866
Aklavik,68.2191,-135.0107,-13.0,77,99,5.75,CA,1616140867
Arvika,59.6553,12.5852,24.8,80,0,5.75,SE,1616140867
Puerto Ayacucho,5.6639,-67.6236,73.89,79,85,2.04,VE,1616140867
Koulikoro,14.0,-7.75,80.49,10,5,9.35,ML,1616140868
Pulandian,39.3953,121.9669,51.8,32,0,8.95,CN,1616140868
Coromandel,-18.4733,-47.2003,63.55,89,99,3.22,BR,1616140868
Egvekinot,66.3167,-179.1667,-15.38,71,0,5.3,RU,1616140869
Parlākimidi,18.7667,84.0833,102.65,14,100,7.38,IN,1616140869
Goderich,43.7501,-81.7165,26.6,54,0,11.5,CA,1616140581
Cockburn Town,21.4612,-71.1419,74.84,77,19,16.51,TC,1616140801
Dunedin,-45.8742,170.5036,55.99,77,43,8.99,NZ,1616140486
Orlik,52.5178,99.825,16.95,60,100,4.79,RU,1616140870
Limbang,4.75,115.0,87.8,74,75,11.5,MY,1616140870
High Level,58.5169,-117.136,28.4,86,75,2.3,CA,1616140870
Bara,10.3744,10.7288,86.09,40,3,8.57,NG,1616140871
Ahipara,-35.1667,173.1667,61.59,71,16,8.97,NZ,1616140558
Palatka,29.6486,-81.6376,63.0,77,0,8.1,US,1616140871
Acapulco de Juárez,16.8634,-99.8901,72.91,79,0,4.38,MX,1616140606
Catherinas Lust,6.4,-57.6,74.82,81,82,9.13,GY,1616140871
Nosy Varika,-20.5833,48.5333,82.65,67,5,4.41,MG,1616140872
Esim,4.8699,-2.2405,80.46,74,100,4.12,GH,1616140872
Departamento de Maldonado,-34.6667,-54.9167,55.0,94,75,2.3,UY,1616140499
Soubre,5.7856,-6.6083,76.28,82,84,2.86,CI,1616140872
Sunndalsøra,62.6754,8.5515,37.4,100,75,3.44,NO,1616140873
Saltpond,5.2091,-1.0606,79.12,77,100,7.29,GH,1616140719
Port Lincoln,-34.7333,135.8667,72.12,62,0,13.51,AU,1616140428
Villa Bruzual,9.3328,-69.1208,74.98,64,96,8.12,VE,1616140873
Itarema,-2.9248,-39.9167,74.88,92,50,6.55,BR,1616140206
Emerald,-23.5333,148.1667,86.0,54,90,11.5,AU,1616140874
Vizinga,61.0749,50.1031,28.87,91,96,4.18,RU,1616140874
Leningradskiy,69.3833,178.4167,-20.88,88,0,1.43,RU,1616140362
Akdepe,42.0551,59.3788,62.6,55,100,16.11,TM,1616140875
Thompson,55.7435,-97.8558,32.0,59,1,4.61,CA,1616140875
Lagunas,-5.2269,-75.6753,72.64,99,100,1.41,PE,1616140875
Mangai,-4.05,19.5333,79.68,85,98,1.81,CD,1616140751
Buraidah,26.326,43.975,73.4,35,0,8.05,SA,1616140876
Acajutla,13.5928,-89.8275,71.01,92,68,4.88,SV,1616140625
Promyshlennaya,54.9159,85.6385,21.2,73,40,11.18,RU,1616140876
Nioro,13.35,-15.75,64.22,83,12,5.55,GM,1616140876
Okato,-39.2,173.8833,55.99,74,0,3.0,NZ,1616140877
Kinablangan,7.6947,126.5503,82.8,77,100,8.61,PH,1616140877
Puerto Rondón,6.2805,-71.1,74.12,77,36,5.86,CO,1616140877
Calvinia,-31.4707,19.776,62.6,55,0,5.75,ZA,1616140878
